{"business_id":"b1","name":"Café Central","address":"Calle 123","city":"Madrid","state":"MD","postal_code":"28001","latitude":40.4168,"longitude":-3.7038,"stars":4.5,"review_count":12,"is_open":1,"attributes":{"WiFi":"free"},"categories":"Coffee, Bakery","hours":{"Monday":"8:0-20:0"}}
{"business_id":"b2","name":"Pizzería Roma","address":"Gran Vía 45","city":"Madrid","state":"MD","postal_code":"28013","latitude":40.4200,"longitude":-3.7050,"stars":4,"review_count":30,"is_open":1,"attributes":{"Delivery":"True"},"categories":"Pizza, Italian, Restaurant","hours":{"Tuesday":"12:0-23:0"}}
{"business_id":"b3","name":"Tienda Eco","address":"Av. Verde 12","city":"Barcelona","state":"BC","postal_code":"08001","latitude":41.3851,"longitude":2.1734,"stars":3.5,"review_count":8,"is_open":1,"attributes":{"BikeParking":"True"},"categories":"Grocery, Organic","hours":null}
{"business_id":"b4","name":"Bar Sol","address":"Plaza Mayor 3","city":"Madrid","state":"MD","postal_code":"28012","latitude":40.4155,"longitude":-3.7074,"stars":5,"review_count":45,"is_open":0,"attributes":{"Alcohol":"beer"},"categories":"Bar, Nightlife","hours":null}
{"business_id":"b5","name":"Librería Atenea","address":"Calle Luna 8","city":"Madrid","state":"MD","postal_code":"28004","latitude":40.423,"longitude":-3.702,"stars":4.8,"review_count":17,"is_open":1,"attributes":{"WheelchairAccessible":"True"},"categories":"Bookstore, Shopping","hours":{"Wednesday":"10:0-18:0"}}
{"business_id":"b6","name":"Yoga Zen","address":"Ronda 55","city":"Barcelona","state":"BC","postal_code":"08010","latitude":41.39,"longitude":2.18,"stars":4.2,"review_count":9,"is_open":1,"attributes":{"ByAppointmentOnly":"True"},"categories":"Yoga, Fitness","hours":{"Monday":"7:0-21:0"}}
{"business_id":"b7","name":"Taller AutoMax","address":"Av. Motor 89","city":"Madrid","state":"MD","postal_code":"28030","latitude":40.41,"longitude":-3.69,"stars":3,"review_count":6,"is_open":1,"attributes":{"BusinessAcceptsCreditCards":"True"},"categories":"Auto Repair, Services","hours":null}
{"business_id":"b8","name":"Restaurante Sakura","address":"Calle Japón 23","city":"Barcelona","state":"BC","postal_code":"08015","latitude":41.38,"longitude":2.17,"stars":4.6,"review_count":29,"is_open":1,"attributes":{"Reservations":"True"},"categories":"Japanese, Restaurant","hours":{"Friday":"13:0-23:0"}}
{"business_id":"b9","name":"Hotel Sol","address":"Av. Centro 10","city":"Madrid","state":"MD","postal_code":"28005","latitude":40.42,"longitude":-3.71,"stars":4.1,"review_count":50,"is_open":1,"attributes":{"WiFi":"True"},"categories":"Hotel, Travel","hours":null}
{"business_id":"b10","name":"Gimnasio Power","address":"Calle Fuerza 7","city":"Barcelona","state":"BC","postal_code":"08020","latitude":41.40,"longitude":2.19,"stars":4.7,"review_count":40,"is_open":1,"attributes":{"Sauna":"True"},"categories":"Gym, Fitness","hours":{"Monday":"6:0-22:0"}}
